[
 {
   "empno": 1,
   "Name": "Muhammed MacIntyre",
   "employees": 3,
   "long": -213.25,
   "lat": 38.94,
   "no1": 35,
   "region": "Nunavut",
   "field": "Storage & Organization",
   "avg": 0.8
 },
 {
   "empno": 2,
   "Name": "Barry French",
   "employees": 293,
   "long": 457.81,
   "lat": 208.16,
   "no1": 68.02,
   "region": "Nunavut",
   "field": "Appliances",
   "avg": 0.58
 },
 {
   "empno": 3,
   "Name": "Barry French",
   "employees": 293,
   "long": 46.71,
   "lat": 8.69,
   "no1": 2.99,
   "region": "Nunavut",
   "field": "Binders and Binder Accessories",
   "avg": 0.39
 },
 {
   "empno": 4,
   "Name": "Clay Rozendal",
   "employees": 483,
   "long": 1198.97,
   "lat": 195.99,
   "no1": 3.99,
   "region": "Nunavut",
   "field": "Telephones and Communication",
   "avg": 0.58
 },
 {
   "empno": 5,
   "Name": "Carlos Soltero",
   "employees": 515,
   "long": 30.94,
   "lat": 21.78,
   "no1": 5.94,
   "region": "Nunavut",
   "field": "Appliances",
   "avg": 0.5
 },
 {
   "empno": 6,
   "Name": "Carlos Soltero",
   "employees": 515,
   "long": 4.43,
   "lat": 6.64,
   "no1": 4.95,
   "region": "Nunavut",
   "field": "Office Furnishings",
   "avg": 0.37
 },
 {
   "empno": 7,
   "Name": "Carl Jackson",
   "employees": 613,
   "long": -54.04,
   "lat": 7.3,
   "no1": 7.72,
   "region": "Nunavut",
   "field": "Binders and Binder Accessories",
   "avg": 0.38
 },
 {
   "empno": 8,
   "Name": "Carl Jackson",
   "employees": 613,
   "long": 127.7,
   "lat": 42.76,
   "no1": 6.22,
   "region": "Nunavut",
   "field": "Storage & Organization",
   "avg": null
 },
 {
   "empno": 9,
   "Name": "Monica Federle",
   "employees": 643,
   "long": -695.26,
   "lat": 138.14,
   "no1": 35,
   "region": "Nunavut",
   "field": "Storage & Organization",
   "avg": null
 },
 {
   "empno": 10,
   "Name": "Dorothy Badders",
   "employees": 678,
   "long": -226.36,
   "lat": 4.98,
   "no1": 8.33,
   "region": "Nunavut",
   "field": "Paper",
   "avg": 0.38
 },
 {
   "empno": 11,
   "Name": "Neola Schneider",
   "employees": 807,
   "long": -166.85,
   "lat": 4.28,
   "no1": 6.18,
   "region": "Nunavut",
   "field": "Paper",
   "avg": 0.4
 },
 {
   "empno": 12,
   "Name": "Neola Schneider",
   "employees": 807,
   "long": -14.33,
   "lat": 3.95,
   "no1": 2,
   "region": "Nunavut",
   "field": "Rubber Bands",
   "avg": 0.53
 },
 {
   "empno": 13,
   "Name": "Carlos Daly",
   "employees": 868,
   "long": 134.72,
   "lat": 21.78,
   "no1": 5.94,
   "region": "Nunavut",
   "field": "Appliances",
   "avg": 0.5
 },
 {
   "empno": 14,
   "Name": "Carlos Daly",
   "employees": 868,
   "long": 114.46,
   "lat": 47.98,
   "no1": 3.61,
   "region": "Nunavut",
   "field": "Computer Peripherals",
   "avg": 0.71
 },
 {
   "empno": 15,
   "Name": "Claudia Miner",
   "employees": 933,
   "long": -4.72,
   "lat": 5.28,
   "no1": 2.99,
   "region": "Nunavut",
   "field": "Binders and Binder Accessories",
   "avg": 0.37
 },
 {
   "empno": 16,
   "Name": "Neola Schneider",
   "employees": 995,
   "long": 782.91,
   "lat": 39.89,
   "no1": 3.04,
   "region": "Nunavut",
   "field": "Office Furnishings",
   "avg": 0.53
 },
 {
   "empno": 17,
   "Name": "Allen Rosenblatt",
   "employees": 998,
   "long": 93.8,
   "lat": 15.74,
   "no1": 1.39,
   "region": "Nunavut",
   "field": "Envelopes",
   "avg": 0.4
 },
 {
   "empno": 18,
   "Name": "Sylvia Foulston",
   "employees": 1154,
   "long": 440.72,
   "lat": 100.98,
   "no1": 26.22,
   "region": "Nunavut",
   "field": "Bookcases",
   "avg": 0.6
 },
 {
   "empno": 19,
   "Name": "Sylvia Foulston",
   "employees": 1154,
   "long": -481.04,
   "lat": 71.37,
   "no1": 69,
   "region": "Nunavut",
   "field": "Tables",
   "avg": 0.68
 },
 {
   "empno": 20,
   "Name": "Jim Radford",
   "employees": 1344,
   "long": -11.68,
   "lat": 65.99,
   "no1": 5.26,
   "region": "Nunavut",
   "field": "Telephones and Communication",
   "avg": 0.59
 },
 {
   "empno": 21,
   "Name": "Jim Radford",
   "employees": 1344,
   "long": 313.58,
   "lat": 155.99,
   "no1": 8.99,
   "region": "Nunavut",
   "field": "Telephones and Communication",
   "avg": 0.58
 },
 {
   "empno": 22,
   "Name": "Carlos Soltero",
   "employees": 1412,
   "long": 26.92,
   "lat": 3.69,
   "no1": 0.5,
   "region": "Nunavut",
   "field": "Labels",
   "avg": 0.38
 },
 {
   "empno": 23,
   "Name": "Carlos Soltero",
   "employees": 1412,
   "long": -5.77,
   "lat": 4.71,
   "no1": 0.7,
   "region": "Nunavut",
   "field": "Rubber Bands",
   "avg": 0.8
 },
 {
   "empno": 24,
   "Name": "Carl Ludwig",
   "employees": 1539,
   "long": -172.88,
   "lat": 15.99,
   "no1": 13.18,
   "region": "Nunavut",
   "field": "Binders and Binder Accessories",
   "avg": 0.37
 },
 {
   "empno": 25,
   "Name": "Carl Ludwig",
   "employees": 1539,
   "long": -144.55,
   "lat": 4.89,
   "no1": 4.93,
   "region": "Nunavut",
   "field": "Computer Peripherals",
   "avg": 0.66
 },
 {
   "empno": 26,
   "Name": "Don Miller",
   "employees": 1540,
   "long": 5.76,
   "lat": 2.88,
   "no1": 0.7,
   "region": "Nunavut",
   "field": "Pens & Art Supplies",
   "avg": 0.56
 },
 {
   "empno": 27,
   "Name": "Annie Cyprus",
   "employees": 1702,
   "long": 4.9,
   "lat": 2.84,
   "no1": 0.93,
   "region": "Nunavut",
   "field": "Pens & Art Supplies",
   "avg": 0.54
 },
 {
   "empno": 28,
   "Name": "Carl Ludwig",
   "employees": 1761,
   "long": -547.61,
   "lat": 449.99,
   "no1": 49,
   "region": "Nunavut",
   "field": "Copiers and Fax",
   "avg": 0.38
 },
 {
   "empno": 29,
   "Name": "Carlos Soltero",
   "employees": 1792,
   "long": -5.45,
   "lat": 13.48,
   "no1": 4.51,
   "region": "Nunavut",
   "field": "Storage & Organization",
   "avg": 0.59
 },
 {
   "empno": 30,
   "Name": "Grant Carroll",
   "employees": 2275,
   "long": 41.67,
   "lat": 6.08,
   "no1": 1.17,
   "region": "Nunavut",
   "field": "Pens & Art Supplies",
   "avg": 0.56
 },
 {
   "empno": 31,
   "Name": "Don Miller",
   "employees": 2277,
   "long": -46.03,
   "lat": 5.98,
   "no1": 4.38,
   "region": "Nunavut",
   "field": "Computer Peripherals",
   "avg": 0.75
 },
 {
   "empno": 32,
   "Name": "Don Miller",
   "employees": 2277,
   "long": 33.67,
   "lat": 40.99,
   "no1": 19.99,
   "region": "Nunavut",
   "field": "Paper",
   "avg": 0.36
 },
 {
   "empno": 33,
   "Name": "Alan Barnes",
   "employees": 2532,
   "long": 140.01,
   "lat": 7.31,
   "no1": 0.49,
   "region": "Nunavut",
   "field": "Labels",
   "avg": 0.38
 },
 {
   "empno": 34,
   "Name": "Alan Barnes",
   "employees": 2532,
   "long": -78.96,
   "lat": 20.99,
   "no1": 2.5,
   "region": "Nunavut",
   "field": "Telephones and Communication",
   "avg": 0.81
 },
 {
   "empno": 35,
   "Name": "Jack Garza",
   "employees": 2631,
   "long": 252.66,
   "lat": 40.96,
   "no1": 1.99,
   "region": "Nunavut",
   "field": "Computer Peripherals",
   "avg": 0.55
 },
 {
   "empno": 36,
   "Name": "Julia West",
   "employees": 2757,
   "long": -1766.01,
   "lat": 95.95,
   "no1": 74.35,
   "region": "Nunavut",
   "field": "Chairs & Chairmats",
   "avg": 0.57
 },
 {
   "empno": 37,
   "Name": "Eugene Barchas",
   "employees": 2791,
   "long": -236.27,
   "lat": 3.89,
   "no1": 7.01,
   "region": "Nunavut",
   "field": "Binders and Binder Accessories",
   "avg": 0.37
 },
 {
   "empno": 38,
   "Name": "Eugene Barchas",
   "employees": 2791,
   "long": 80.44,
   "lat": 120.98,
   "no1": 30,
   "region": "Nunavut",
   "field": "Chairs & Chairmats",
   "avg": 0.64
 },
 {
   "empno": 39,
   "Name": "Eugene Barchas",
   "employees": 2791,
   "long": 118.94,
   "lat": 30.98,
   "no1": 5.76,
   "region": "Nunavut",
   "field": "Paper",
   "avg": 0.4
 },
 {
   "empno": 40,
   "Name": "Edward Hooks",
   "employees": 2976,
   "long": 3424.22,
   "lat": 500.98,
   "no1": 26,
   "region": "Nunavut",
   "field": "Chairs & Chairmats",
   "avg": 0.6
 },
 {
   "empno": 41,
   "Name": "Brad Eason",
   "employees": 3232,
   "long": -11.83,
   "lat": 7.84,
   "no1": 4.71,
   "region": "Nunavut",
   "field": "Binders and Binder Accessories",
   "avg": 0.35
 },
 {
   "empno": 42,
   "Name": "Nicole Hansen",
   "employees": 3524,
   "long": 52.35,
   "lat": 18.97,
   "no1": 9.03,
   "region": "Nunavut",
   "field": "Paper",
   "avg": 0.37
 },
 {
   "empno": 43,
   "Name": "Dorothy Wardle",
   "employees": 3908,
   "long": -180.2,
   "lat": 115.99,
   "no1": 2.5,
   "region": "Nunavut",
   "field": "Telephones and Communication",
   "avg": 0.57
 },
 {
   "empno": 44,
   "Name": "Aaron Bergman",
   "employees": 4132,
   "long": 1.32,
   "lat": 2.88,
   "no1": 0.5,
   "region": "Nunavut",
   "field": "Labels",
   "avg": 0.36
 },
 {
   "empno": 45,
   "Name": "Jim Radford",
   "employees": 4612,
   "long": -375.64,
   "lat": 4.48,
   "no1": 49,
   "region": "Nunavut",
   "field": "Appliances",
   "avg": 0.6
 },
 {
   "empno": 46,
   "Name": "Annie Cyprus",
   "employees": 4676,
   "long": -104.25,
   "lat": 125.99,
   "no1": 7.69,
   "region": "Nunavut",
   "field": "Telephones and Communication",
   "avg": 0.58
 },
 {
   "empno": 47,
   "Name": "Annie Cyprus",
   "employees": 4676,
   "long": 85.96,
   "lat": 3.75,
   "no1": 0.5,
   "region": "Nunavut",
   "field": "Labels",
   "avg": 0.37
 },
 {
   "empno": 48,
   "Name": "Annie Cyprus",
   "employees": 4676,
   "long": -8.38,
   "lat": 12.28,
   "no1": 6.47,
   "region": "Nunavut",
   "field": "Paper",
   "avg": 0.38
 },
 {
   "empno": 49,
   "Name": "Annie Cyprus",
   "employees": 4676,
   "long": 1115.69,
   "lat": 155.99,
   "no1": 8.99,
   "region": "Nunavut",
   "field": "Telephones and Communication",
   "avg": 0.58
 },
 {
   "empno": 50,
   "Name": "Annie Cyprus",
   "employees": 5284,
   "long": -3.05,
   "lat": 8.69,
   "no1": 2.99,
   "region": "Nunavut",
   "field": "Binders and Binder Accessories",
   "avg": 0.39
 },
 {
   "empno": 51,
   "Name": "Clay Rozendal",
   "employees": 5316,
   "long": 514.07,
   "lat": 31.78,
   "no1": 1.99,
   "region": "Nunavut",
   "field": "Computer Peripherals",
   "avg": 0.42
 },
 {
   "empno": 52,
   "Name": "Don Jones",
   "employees": 5409,
   "long": -7.04,
   "lat": 3.98,
   "no1": 2.97,
   "region": "Nunavut",
   "field": "Paper",
   "avg": 0.35
 },
 {
   "empno": 53,
   "Name": "Beth Thompson",
   "employees": 5506,
   "long": 4.41,
   "lat": 5.88,
   "no1": 3.04,
   "region": "Nunavut",
   "field": "Paper",
   "avg": 0.36
 },
 {
   "empno": 54,
   "Name": "Frank Price",
   "employees": 5569,
   "long": -0.06,
   "lat": 9.65,
   "no1": 6.22,
   "region": "Nunavut",
   "field": "Office Furnishings",
   "avg": 0.55
 },
 {
   "empno": 55,
   "Name": "Michelle Lonsdale",
   "employees": 5607,
   "long": -50.33,
   "lat": 7.99,
   "no1": 5.03,
   "region": "Nunavut",
   "field": "Telephones and Communication",
   "avg": 0.6
 },
 {
   "empno": 56,
   "Name": "Ann Chong",
   "employees": 5894,
   "long": 87.68,
   "lat": 58.1,
   "no1": 1.49,
   "region": "Nunavut",
   "field": "Binders and Binder Accessories",
   "avg": 0.38
 },
 {
   "empno": 57,
   "Name": "Ann Chong",
   "employees": 5894,
   "long": -68.22,
   "lat": 80.48,
   "no1": 4.5,
   "region": "Nunavut",
   "field": "Appliances",
   "avg": 0.55
 },
 {
   "empno": 58,
   "Name": "Joy Bell",
   "employees": 5925,
   "long": -354.9,
   "lat": 92.23,
   "no1": 39.61,
   "region": "Nunavut",
   "field": "Office Furnishings",
   "avg": 0.67
 },
 {
   "empno": 59,
   "Name": "Joy Bell",
   "employees": 5925,
   "long": -267.01,
   "lat": 85.99,
   "no1": 0.99,
   "region": "Nunavut",
   "field": "Telephones and Communication",
   "avg": 0.85
 },
 {
   "empno": 60,
   "Name": "Skye Norling",
   "employees": 6016,
   "long": 3.63,
   "lat": 11.48,
   "no1": 5.43,
   "region": "Nunavut",
   "field": "Paper",
   "avg": 0.36
 },
 {
   "empno": 61,
   "Name": "Barry Weirich",
   "employees": 6116,
   "long": -1759.58,
   "lat": 1637.53,
   "no1": 24.49,
   "region": "Nunavut",
   "field": "Scissors, Rulers and Trimmers",
   "avg": 0.81
 },
 {
   "empno": 62,
   "Name": "Grant Carroll",
   "employees": 6182,
   "long": -116.79,
   "lat": 6.48,
   "no1": 6.65,
   "region": "Nunavut",
   "field": "Paper",
   "avg": 0.36
 },
 {
   "empno": 63,
   "Name": "Grant Carroll",
   "employees": 6182,
   "long": -67.28,
   "lat": 6.48,
   "no1": 7.86,
   "region": "Nunavut",
   "field": "Paper",
   "avg": 0.37
 },
 {
   "empno": 64,
   "Name": "Adrian Hane",
   "employees": 6535,
   "long": -19.33,
   "lat": 28.15,
   "no1": 8.99,
   "region": "Nunavut",
   "field": "Pens & Art Supplies",
   "avg": 0.57
 },
 {
   "empno": 65,
   "Name": "Skye Norling",
   "employees": 6884,
   "long": -61.21,
   "lat": 4.98,
   "no1": 4.75,
   "region": "Nunavut",
   "field": "Paper",
   "avg": 0.36
 },
 {
   "empno": 66,
   "Name": "Skye Norling",
   "employees": 6884,
   "long": 119.09,
   "lat": 6.35,
   "no1": 1.02,
   "region": "Nunavut",
   "field": "Paper",
   "avg": 0.39
 },
 {
   "empno": 67,
   "Name": "Andrew Gjertsen",
   "employees": 6916,
   "long": -141.27,
   "lat": 10.9,
   "no1": 7.46,
   "region": "Nunavut",
   "field": "Storage & Organization",
   "avg": 0.59
 },
 {
   "empno": 68,
   "Name": "Ralph Knight",
   "employees": 6980,
   "long": -77.28,
   "lat": 7.3,
   "no1": 7.72,
   "region": "Nunavut",
   "field": "Binders and Binder Accessories",
   "avg": 0.38
 },
 {
   "empno": 69,
   "Name": "Dorothy Wardle",
   "employees": 6982,
   "long": 407.44,
   "lat": 39.48,
   "no1": 1.99,
   "region": "Nunavut",
   "field": "Computer Peripherals",
   "avg": 0.54
 },
 {
   "empno": 70,
   "Name": "Dorothy Wardle",
   "employees": 6982,
   "long": -338.27,
   "lat": 100.98,
   "no1": 57.38,
   "region": "Nunavut",
   "field": "Bookcases",
   "avg": 0.78
 },
 {
   "empno": 71,
   "Name": "Dorothy Wardle",
   "employees": 6982,
   "long": 52.56,
   "lat": 19.98,
   "no1": 10.49,
   "region": "Nunavut",
   "field": "Office Furnishings",
   "avg": 0.49
 },
 {
   "empno": 72,
   "Name": "Grant Carroll",
   "employees": 7110,
   "long": 1902.24,
   "lat": 276.2,
   "no1": 24.49,
   "region": "Nunavut",
   "field": "Chairs & Chairmats",
   "avg": null
 },
 {
   "empno": 73,
   "Name": "Barry Weirich",
   "employees": 7430,
   "long": 353.2,
   "lat": 15.67,
   "no1": 1.39,
   "region": "Nunavut",
   "field": "Envelopes",
   "avg": 0.38
 },
 {
   "empno": 74,
   "Name": "Beth Paige",
   "employees": 7906,
   "long": 271.78,
   "lat": 25.98,
   "no1": 5.37,
   "region": "Nunavut",
   "field": "Appliances",
   "avg": 0.5
 },
 {
   "empno": 75,
   "Name": "Sylvia Foulston",
   "employees": 8391,
   "long": -268.36,
   "lat": 300.98,
   "no1": 64.73,
   "region": "Nunavut",
   "field": "Chairs & Chairmats",
   "avg": 0.56
 },
 {
   "empno": 76,
   "Name": "Nicole Hansen",
   "employees": 8419,
   "long": 70.39,
   "lat": 19.98,
   "no1": 5.97,
   "region": "Nunavut",
   "field": "Paper",
   "avg": 0.38
 },
 {
   "empno": 77,
   "Name": "Nicole Hansen",
   "employees": 8419,
   "long": -86.62,
   "lat": 6.48,
   "no1": 7.03,
   "region": "Nunavut",
   "field": "Paper",
   "avg": 0.37
 },
 {
   "empno": 78,
   "Name": "Nicole Hansen",
   "employees": 8833,
   "long": -846.73,
   "lat": 80.98,
   "no1": 35,
   "region": "Nunavut",
   "field": "Storage & Organization",
   "avg": 0.81
 },
 {
   "empno": 79,
   "Name": "Beth Paige",
   "employees": 8995,
   "long": 8.05,
   "lat": 1.88,
   "no1": 1.49,
   "region": "Nunavut",
   "field": "Binders and Binder Accessories",
   "avg": 0.37
 },
 {
   "empno": 80,
   "Name": "Beth Paige",
   "employees": 8995,
   "long": -78.02,
   "lat": 6.48,
   "no1": 5.86,
   "region": "Northwest Territories",
   "field": "Paper",
   "avg": 0.36
 },
 {
   "empno": 81,
   "Name": "Beth Paige",
   "employees": 8995,
   "long": 737.94,
   "lat": 102.3,
   "no1": 21.26,
   "region": "Northwest Territories",
   "field": "Office Furnishings",
   "avg": 0.59
 },
 {
   "empno": 82,
   "Name": "Beth Paige",
   "employees": 8995,
   "long": -191.28,
   "lat": 6.48,
   "no1": 8.19,
   "region": "Northwest Territories",
   "field": "Paper",
   "avg": 0.37
 },
 {
   "empno": 83,
   "Name": "Beth Paige",
   "employees": 8995,
   "long": -21.49,
   "lat": 1.89,
   "no1": 0.76,
   "region": "Northwest Territories",
   "field": "Rubber Bands",
   "avg": 0.83
 },
 {
   "empno": 84,
   "Name": "Sylvia Foulston",
   "employees": 9126,
   "long": 884.08,
   "lat": 62.05,
   "no1": 3.99,
   "region": "Northwest Territories",
   "field": "Appliances",
   "avg": 0.55
 },
 {
   "empno": 85,
   "Name": "Bryan Davis",
   "employees": 9127,
   "long": -329.49,
   "lat": 279.48,
   "no1": 35,
   "region": "Northwest Territories",
   "field": "Storage & Organization",
   "avg": 0.8
 },
 {
   "empno": 86,
   "Name": "Joy Bell",
   "employees": 9509,
   "long": 2825.15,
   "lat": 320.98,
   "no1": 58.95,
   "region": "Northwest Territories",
   "field": "Chairs & Chairmats",
   "avg": 0.57
 },
 {
   "empno": 87,
   "Name": "Joy Bell",
   "employees": 9509,
   "long": 2.13,
   "lat": 18.97,
   "no1": 5.21,
   "region": "Northwest Territories",
   "field": "Paper",
   "avg": 0.37
 },
 {
   "empno": 88,
   "Name": "Joy Bell",
   "employees": 9509,
   "long": 707.15,
   "lat": 48.91,
   "no1": 5.81,
   "region": "Northwest Territories",
   "field": "Paper",
   "avg": 0.38
 },
 {
   "empno": 89,
   "Name": "Alan Barnes",
   "employees": 9763,
   "long": 75.13,
   "lat": 4.13,
   "no1": 0.5,
   "region": "Northwest Territories",
   "field": "Labels",
   "avg": 0.39
 },
 {
   "empno": 90,
   "Name": "Grant Carroll",
   "employees": 9927,
   "long": -270.63,
   "lat": 140.98,
   "no1": 53.48,
   "region": "Northwest Territories",
   "field": "Bookcases",
   "avg": 0.65
 },
 {
   "empno": 91,
   "Name": "Grant Carroll",
   "employees": 9927,
   "long": 3387.35,
   "lat": 218.08,
   "no1": 18.06,
   "region": "Northwest Territories",
   "field": "Chairs & Chairmats",
   "avg": 0.57
 },
 {
   "empno": 92,
   "Name": "Grant Carroll",
   "employees": 9927,
   "long": -82.16,
   "lat": 50.98,
   "no1": 6.5,
   "region": "Northwest Territories",
   "field": "Computer Peripherals",
   "avg": 0.73
 },
 {
   "empno": 93,
   "Name": "Delfina Latchford",
   "employees": 10022,
   "long": -3.88,
   "lat": 10.14,
   "no1": 2.27,
   "region": "Northwest Territories",
   "field": "Paper",
   "avg": 0.36
 },
 {
   "empno": 94,
   "Name": "Don Jones",
   "employees": 10437,
   "long": -191.22,
   "lat": 15.99,
   "no1": 13.18,
   "region": "Northwest Territories",
   "field": "Binders and Binder Accessories",
   "avg": 0.37
 },
 {
   "empno": 95,
   "Name": "Doug Bickford",
   "employees": 10499,
   "long": 31.21,
   "lat": 262.11,
   "no1": 62.74,
   "region": "Northwest Territories",
   "field": "Tables",
   "avg": 0.75
 },
 {
   "empno": 96,
   "Name": "Doug Bickford",
   "employees": 10535,
   "long": -44.14,
   "lat": 33.98,
   "no1": 19.99,
   "region": "Northwest Territories",
   "field": "Office Furnishings",
   "avg": 0.55
 },
 {
   "empno": 97,
   "Name": "Doug Bickford",
   "employees": 10535,
   "long": -0.79,
   "lat": 1.76,
   "no1": 0.7,
   "region": "Northwest Territories",
   "field": "Pens & Art Supplies",
   "avg": 0.56
 },
 {
   "empno": 98,
   "Name": "Jamie Kunitz",
   "employees": 10789,
   "long": 76.42,
   "lat": 19.84,
   "no1": 4.1,
   "region": "Northwest Territories",
   "field": "Pens & Art Supplies",
   "avg": 0.44
 },
 {
   "empno": 99,
   "Name": "Anthony Johnson",
   "employees": 10791,
   "long": 93.36,
   "lat": 19.98,
   "no1": 5.77,
   "region": "Northwest Territories",
   "field": "Paper",
   "avg": 0.38
 },
 {
   "empno": 100,
   "Name": "Ralph Knight",
   "employees": 10945,
   "long": 4.22,
   "lat": 95.99,
   "no1": 8.99,
   "region": "Northwest Territories",
   "field": "Telephones and Communication",
   "avg": 0.57
 },
 {
   "empno": 101,
   "Name": "Ralph Knight",
   "employees": 10945,
   "long": 4.22,
   "lat": 95.99,
   "no1": 8.99,
   "region": "Northwest Territories",
   "field": "Telephones and Communication",
   "avg": 0.57
 },
 {
   "empno": 102,
   "Name": "Ralph Knight",
   "employees": 10945,
   "long": 4.22,
   "lat": 95.99,
   "no1": 8.99,
   "region": "Northwest Territories",
   "field": "Telephones and Communication",
   "avg": 0.57
 }
]